,name,address,brand,is_self,gas,diesel,washcar,lpg,fixcar,convenience,hour24,gu,lat,lng
0,(주)보성 세곡주유소,서울 강남구 헌릉로 731 (세곡동),SK에너지,Y,"1,556","1,594",Y,N,N,N,N,강남구,37.4672103,127.1187128
1,현대오일뱅크(주)직영 산성셀프주유소,서울 강남구 헌릉로 730,현대오일뱅크,Y,"1,619","1,599",Y,N,N,N,N,강남구,37.4664775,127.1190391
2,오일프러스 셀프,서울 강남구 남부순환로 2651 (도곡동),SK에너지,Y,"1,624","1,659",Y,N,Y,N,Y,강남구,37.4858004,127.0396751
3,방죽주유소,서울 강남구 밤고개로 215 (율현동),GS칼텍스,Y,"1,627","1,629",Y,N,N,N,N,강남구,37.4749397,127.1068516
4,SK서광주유소,서울 강남구 역삼로 142,SK에너지,Y,"1,645","1,675",Y,N,Y,N,Y,강남구,37.4943462,127.0350659
5,현대오일뱅크 도곡셀프주유소,서울 강남구 남부순환로 2718 (도곡2동),현대오일뱅크,Y,"1,649","1,644",Y,N,Y,N,N,강남구,37.4824625,127.0430492
6,SK에너지㈜ 진달래주유소,서울 강남구 도곡로 208,SK에너지,N,"1,659","1,679",Y,N,N,N,N,강남구,37.4922037,127.0419554
7,현대오일뱅크(주) 유진주유소,서울 강남구 논현로 152 (도곡동),현대오일뱅크,N,"1,664","1,659",Y,N,Y,N,N,강남구,37.4873906,127.0399951
8,SK에너지(주) 매봉주유소,서울 강남구 언주로 307,SK에너지,Y,"1,679","1,699",Y,N,Y,N,N,강남구,37.4948481,127.0458254
9,(주)선진도곡주유소,서울 강남구 도곡로 162 (도곡동),S-OIL,N,"1,689","1,695",Y,N,Y,N,N,강남구,37.4877835,127.0466763
10,일원주유소,서울 강남구 양재대로55길 3 (일원동),S-OIL,Y,"1,695","1,637",N,N,N,N,N,강남구,37.4922459,127.0881366
11,(주)중앙에너비스 수서지점,서울 강남구 광평로 202 (수서동),SK에너지,Y,"1,695","1,637",Y,N,N,N,N,강남구,37.4839933,127.0949776
12,자곡셀프주유소,서울 강남구 밤고개로 120 (자곡동),SK에너지,Y,"1,698","1,650",Y,N,N,N,N,강남구,37.4835321,127.1039802
13,대교셀프주유소,서울 강남구 강남대로 640 (신사동),SK에너지,Y,"1,720","1,700",N,N,N,N,Y,강남구,37.5280898,127.0355331
14,(유)동하석유 힐탑셀프주유소,서울 강남구 논현로 640,SK에너지,Y,"1,747","1,795",Y,N,N,N,Y,강남구,37.5106775,127.0327236
15,에쓰-오일㈜직영 개나리주유소,서울 강남구 언주로 423 (역삼동),S-OIL,N,"1,749","1,819",Y,N,N,N,Y,강남구,37.4999072,127.0373932
16,대동석유 압구정주유소,서울 강남구 언주로 842 (신사동),SK에너지,Y,"1,759","1,799",Y,N,N,N,Y,강남구,37.5226879,127.0252724
17,에스제이에너지산업(주) 개포주유소,서울 강남구 양재대로 339,GS칼텍스,N,"1,848","1,778",Y,N,N,N,N,강남구,37.4723322,127.0517033
18,대성석유(주)동호주유소,서울 강남구 봉은사로113길 51,GS칼텍스,N,"1,899","1,942",N,N,N,N,N,강남구,37.5184855,127.0646604
19,지에스칼텍스㈜에너지플러스허브GS타워,서울 강남구 논현로 516 (역삼동),GS칼텍스,N,"1,913","1,900",N,N,Y,N,Y,강남구,37.5026952,127.036474
20,현대오일뱅크(주)직영 신사현대주유소,서울 강남구 도산대로 163 (신사동),현대오일뱅크,N,"1,978","1,879",Y,N,N,N,N,강남구,37.5194704,127.0263136
21,현대오일뱅크(주)직영 한양주유소,서울 강남구 압구정로 302 (신사동),현대오일뱅크,N,"1,978","1,944",Y,N,N,N,N,강남구,37.5287714,127.0341463
22,지에스칼텍스㈜ 은마주유소,서울 강남구 영동대로 235,GS칼텍스,N,"1,996","1,950",Y,N,Y,N,Y,강남구,37.5000267,127.0671775
23,지에스칼텍스㈜ 삼성로주유소,서울 강남구 삼성로 563 (삼성동),GS칼텍스,Y,"2,102","1,988",Y,N,N,N,Y,강남구,37.5079601,127.0542139
24,(주)소모에너지 쎈트럴주유소,서울 강남구 삼성로 335,GS칼텍스,N,"2,102","1,988",Y,N,N,N,N,강남구,37.5014022,127.059066
25,지에스칼텍스(주)학여울주유소,서울 강남구 남부순환로 3170 (일원2동),GS칼텍스,N,"2,123","2,086",Y,N,N,N,N,강남구,37.4983776,127.0774759
26,명품주유소,서울 강남구 도곡로 249 (역삼동),S-OIL,N,"2,128","2,197",Y,N,N,N,Y,강남구,37.494102,127.045482
27,㈜새서울석유 새서울주유소,서울 강남구 압구정로 154,현대오일뱅크,N,"2,188","2,158",Y,N,N,N,Y,강남구,37.5257812,127.0265166
28,대청주유소,서울 강남구 개포로 654 (일원동),SK에너지,N,"2,216","2,196",Y,N,N,N,N,강남구,37.494874,127.0842726
29,SK논현주유소,서울 강남구 논현로 747 (논현동),SK에너지,N,"2,290","2,258",Y,N,Y,N,Y,강남구,37.5184942,127.0282324
30,갤러리아주유소,서울 강남구 압구정로 426,SK에너지,N,"2,290","2,288",Y,N,N,N,N,강남구,37.5266815,127.0435149
31,(주)제이제이네트웍스 제이제이주유소,서울 강남구 언주로 716,현대오일뱅크,N,"2,348","2,297",Y,N,N,N,Y,강남구,37.51763589999999,127.0357559
32,(주)만정에너지 삼보주유소,서울 강남구 봉은사로 433 (삼성동),GS칼텍스,N,"2,578","2,540",Y,N,N,N,N,강남구,37.51151340000001,127.0470928
33,재건에너지 재정제2주유소 고속셀프지점,서울특별시 강동구 천호대로 1246 (둔촌제2동),현대오일뱅크,Y,"1,569","1,572",Y,N,N,N,N,강동구,37.5364637,127.149316
34,구천면주유소,서울 강동구 구천면로 357 (암사동),현대오일뱅크,N,"1,594","1,575",N,N,N,N,N,강동구,37.5504208,127.1382328
35,대성석유(주)길동주유소,서울 강동구 천호대로 1168,GS칼텍스,N,"1,596","1,638",Y,N,N,N,N,강동구,37.5333771,127.1411626
36,(주)소모에너지 신월주유소,서울 강동구 양재대로 1323 (성내동),GS칼텍스,Y,"1,596","1,628",Y,N,N,N,N,강동구,37.5302922,127.1287651
37,(주)삼표에너지 고덕주유소,서울 강동구 고덕로 39 (암사동),GS칼텍스,Y,"1,599","1,659",Y,N,N,Y,N,강동구,37.5549868,127.1296896
38,방아다리주유소,서울 강동구 동남로 811 (명일동),SK에너지,Y,"1,625","1,665",Y,N,N,N,N,강동구,37.5502209,127.1500409
39,(주)소모에너지 성내주유소,서울 강동구 올림픽로 578 (성내동),GS칼텍스,Y,"1,638","1,698",Y,N,Y,N,N,강동구,37.531341,127.1273089
40,(주)퍼스트오일 코알라주유소,서울특별시 강동구 올림픽로 556 (성내동),S-OIL,Y,"1,650","1,690",Y,N,N,N,N,강동구,37.5293901,127.122427
41,지에스칼텍스㈜ 동서울주유소,서울 강동구 천호대로 1456 (상일동),GS칼텍스,Y,"1,664","1,685",Y,N,N,N,N,강동구,37.5452101,127.1702029
42,sk해뜨는주유소,서울 강동구 상일로 132 (강일동),SK에너지,Y,"1,665","1,699",Y,N,Y,N,N,강동구,37.558717,127.1713785
43,현대오일뱅크㈜직영 명일셀프주유소,서울 강동구 고덕로 168 (명일동),현대오일뱅크,Y,"1,684","1,655",N,N,N,N,N,강동구,37.5544523,127.1439562
44,주)지유에너지직영 오렌지주유소,서울 강동구 성안로 102 (성내동),SK에너지,N,"1,695","1,695",Y,N,Y,N,N,강동구,37.53226420000001,127.1331353
45,천호현대주유소,서울 강동구 천중로 67 (천호동),현대오일뱅크,N,"1,793","1,794",Y,N,Y,N,N,강동구,37.5451051,127.129457
46,광성주유소,서울 강동구 올림픽로 673 (천호동),S-OIL,N,"1,978","1,968",Y,N,Y,N,Y,강동구,37.5415336,127.1241349
47,SK에너지(주) 매일주유소,서울 강북구 삼양로 217 (미아동),SK에너지,Y,"1,529","1,515",Y,N,N,Y,N,강북구,37.6302371,127.0227426
48,덕릉로주유소,서울 강북구 덕릉로 158 (번동),S-OIL,Y,"1,529","1,495",Y,N,N,N,N,강북구,37.6349074,127.0313001
49,수유동주유소,서울 강북구 도봉로 395 (수유동),GS칼텍스,Y,"1,529","1,495",Y,N,N,N,Y,강북구,37.6421401,127.0295678
50,㈜지에스이앤알 미아주유소,서울 강북구 도봉로 122 (미아동),GS칼텍스,Y,"1,539","1,505",Y,N,N,N,N,강북구,37.6265005,127.0279778
51,(주)석산에너지,서울 강북구 삼양로 316 (수유동),현대오일뱅크,Y,"1,549","1,495",N,N,N,N,N,강북구,37.6315821,127.0179395
52,북서울고속주유소,서울 강북구 삼양로 410 (수유동),SK에너지,Y,"1,549","1,495",N,N,N,N,Y,강북구,37.6401555,127.0172034
53,대성석유(주)신광주유소,서울 강북구 삼양로 484,GS칼텍스,N,"1,549","1,525",Y,N,Y,N,N,강북구,37.6463707,127.015347
54,(주)서울에너지 시민주유소,서울 강북구 인수봉로 185 (수유동),현대오일뱅크,N,"1,549","1,495",N,N,N,N,N,강북구,37.6361659,127.0127908
55,씨앤에스유통㈜ 미아셀프주유소,서울 강북구 도봉로 200 (미아동),S-OIL,Y,"1,585","1,495",Y,N,N,N,N,강북구,37.6264851,127.0264373
56,현대오일뱅크(주)직영 번동셀프주유소,서울 강북구 한천로 963 (번동),현대오일뱅크,Y,"1,587","1,531",Y,N,Y,N,Y,강북구,37.63557230000001,127.0330499
57,세원주유소,서울 강북구 한천로 918 (번동),SK에너지,Y,"1,588","1,548",Y,N,N,N,N,강북구,37.6342623,127.0376951
58,에덴주유소,서울 강북구 월계로 195 (번동),SK에너지,Y,"1,595","1,594",Y,N,Y,N,N,강북구,37.62166819999999,127.045522
59,(주)타이거오일 방화주유소,서울 강서구 방화동로 58-2 (방화동),SK에너지,Y,"1,533","1,493",N,N,N,N,N,강서구,37.5655711,126.8123867
60,행촌에너지 공항주유소,서울 강서구 개화동로 420 (개화동),현대오일뱅크,Y,"1,535","1,475",Y,N,Y,Y,Y,강서구,37.5703721,126.8030747
61,이케이에너지(주) 강서주유소,서울 강서구 화곡로 273 (화곡동),현대오일뱅크,Y,"1,544","1,472",Y,N,Y,N,N,강서구,37.5492376,126.8469515
62,뉴신정주유소,서울 강서구 곰달래로 207 (화곡동),알뜰주유소,N,"1,544","1,472",N,N,N,N,N,강서구,37.5315539,126.8560239
63,화곡역주유소,서울 강서구 강서로 154 (화곡동),알뜰주유소,Y,"1,544","1,472",N,N,N,N,Y,강서구,37.54065689999999,126.8415062
64,목화주유소,서울 강서구 국회대로 251 (화곡동),알뜰주유소,Y,"1,544","1,517",Y,N,N,N,N,강서구,37.5300058,126.8629151
65,KH에너지(주)직영 KH외발산주유소,서울 강서구 방화대로 30,SK에너지,Y,"1,555","1,497",Y,Y,Y,Y,N,강서구,37.5646012,126.8169076
66,지에스칼텍스㈜ 경인고속주유소,서울 강서구 국회대로 225 (화곡동),GS칼텍스,Y,"1,556","1,533",Y,Y,Y,N,Y,강서구,37.5296048,126.8598234
67,유턴주유소,서울 강서구 남부순환로 57,알뜰주유소,Y,"1,558","1,489",N,N,N,N,N,강서구,37.5571443,126.8100135
68,(주)한진 김포공항주유소,서울 강서구 하늘길 259,S-OIL,Y,"1,570","1,590",Y,N,N,N,N,강서구,37.5509534,126.8147734
69,개화주유소,서울 강서구 양천로 57,SK에너지,Y,"1,577","1,577",Y,N,N,N,N,강서구,37.573448,126.810079
70,강서오곡셀프주유소,서울 강서구 벌말로 254 (오곡동),SK에너지,Y,"1,585","1,495",Y,N,N,N,Y,강서구,37.5552839,126.7685674
71,오션네트웍스(주) 서울식물원지점,서울 강서구 양천로 300,SK에너지,Y,"1,586","1,618",N,N,N,N,N,강서구,37.5642415,126.8426754
72,현대오일뱅크 등촌주유소,서울 강서구 등촌로 189 (등촌동),현대오일뱅크,N,"1,586","1,586",Y,N,N,N,N,강서구,37.5467865,126.8625346
73,세원제1주유소,서울 강서구 양천로 311 (가양동),SK에너지,Y,"1,590","1,620",Y,N,Y,N,N,강서구,37.567802,126.8363645
74,하이웨이주유소,서울특별시 강서구 공항대로 432(화곡동),S-OIL,Y,"1,595","1,615",Y,N,N,Y,Y,강서구,37.53811839999999,126.8471024
75,우장산주유소,서울 강서구 강서로 292 (내발산동),SK에너지,Y,"1,595","1,618",N,N,N,N,N,강서구,37.5546422,126.834636
76,대성석유(주)방화대성주유소,서울 강서구 양천로 176,GS칼텍스,Y,"1,596","1,618",Y,N,N,Y,N,강서구,37.5642415,126.8426754
77,대성석유(주) 마곡대성주유소,서울 강서구 강서로 457,GS칼텍스,Y,"1,596","1,618",N,N,N,N,N,강서구,37.5535944,126.8412653
78,대성석유(주) 관문주유소,서울 강서구 공항대로 314,GS칼텍스,N,"1,596","1,618",Y,N,Y,N,N,강서구,37.5576509,126.8423965
79,강서열린주유소,서울 강서구 등촌로 213 (등촌동),GS칼텍스,N,"1,598","1,598",Y,N,N,N,N,강서구,37.5486873,126.8630523
80,대성주유소,서울 강서구 강서로 472,GS칼텍스,N,"1,606","1,628",Y,N,Y,N,N,강서구,37.5674836,126.8413671
81,화곡현대주유소,서울 강서구 강서로 151 (화곡동),SK에너지,Y,"1,606","1,596",Y,N,N,N,Y,강서구,37.5401974,126.8411411
82,SK KH에너지 가양주유소,서울 강서구 강서로 498 (가양동),SK에너지,N,"1,606","1,628",Y,N,Y,Y,Y,강서구,37.5698166,126.8419433
83,현대오일뱅크 양화교주유소,서울 강서구 공항대로 653,현대오일뱅크,Y,"1,622","1,599",Y,N,N,N,N,강서구,37.547366,126.8773233
84,신화곡주유소,서울 강서구 국회대로 71,S-OIL,Y,"1,635","1,575",Y,N,N,N,N,강서구,37.5272351,126.8428769
85,현대오일뱅크(주) 가양주유소,서울 강서구 양천로 391 (가양동),현대오일뱅크,N,"1,638","1,618",Y,N,N,N,N,강서구,37.5633113,126.83426
86,박물관주유소,서울 강서구 양천로53길 97 (가양동),GS칼텍스,N,"1,658","1,668",Y,N,Y,Y,N,강서구,37.5670664,126.8485632
87,(주)한진 김포공항제2주유소,서울 강서구 하늘길 112,S-OIL,Y,"1,666","1,645",N,N,N,N,N,강서구,37.555525,126.8067017
88,코리나(주)청룡주유소,서울 강서구 양천로 576,SK에너지,N,"1,668","1,668",Y,N,N,N,N,강서구,37.5566932,126.86271
89,참솔에너지,서울 강서구 벌말로 281 (오곡동),S-OIL,Y,"1,853","1,756",Y,N,N,N,N,강서구,37.5552839,126.7685674
90,염창동주유소,서울 강서구 양천로 720 (염창동),SK에너지,N,"1,935","1,948",Y,N,N,N,N,강서구,37.5490729,126.8757552
91,(주)엠오티이엔지 직영 삼화주유소,서울 관악구 보라매로 41,현대오일뱅크,N,"1,595","1,565",N,N,N,N,N,관악구,37.4931625,126.9266808
92,대양석유(주)직영 보라매주유소,서울 관악구 보라매로 26 (봉천동),SK에너지,Y,"1,598","1,597",Y,N,N,N,N,관악구,37.49165,126.9272169
93,(주)연우에너지 신관주유소,서울 관악구 신림로 290 (신림동),알뜰주유소,Y,"1,598","1,544",Y,N,N,N,N,관악구,37.4803339,126.9306995
94,SK에너지(주) 신봉천,서울 관악구 남부순환로 1880 (봉천동),SK에너지,N,"1,619","1,649",Y,N,N,Y,N,관악구,37.4787022,126.9583517
95,SK에너지(주)직영 대공원주유소,서울 관악구 과천대로 921 (남현동),SK에너지,N,"1,619","1,649",Y,N,Y,Y,N,관악구,37.4727639,126.9821855
96,현대주유소,서울 관악구 난곡로 108 (신림동),현대오일뱅크,N,"1,623","1,599",N,N,N,N,N,관악구,37.4649327,126.919652
97,현대오일뱅크(주)직영 문성골주유소,서울 관악구 문성로 97 (신림동),현대오일뱅크,N,"1,629","1,604",Y,N,N,N,N,관악구,37.4777782,126.9143636
98,현대오일뱅크(주)직영 관악셀프주유소,서울 관악구 남부순환로 1520 (신림동),현대오일뱅크,Y,"1,634","1,594",N,N,N,N,N,관악구,37.4824066,126.9194423
99,서일석유(주)락성주유소,서울 관악구 남부순환로 1920 (봉천동),GS칼텍스,Y,"1,638","1,599",Y,N,Y,N,Y,관악구,37.4770721,126.9623326
100,유림주유소,서울 관악구 신림로 176 (신림동),S-OIL,N,"1,648","1,628",Y,N,Y,N,Y,관악구,37.4736453,126.9347833
101,(주)한유에너지행운셀프주유소,서울 관악구 남부순환로 1883 (봉천동),SK에너지,Y,"1,689","1,688",Y,N,N,N,N,관악구,37.4790749,126.9591267
102,관악시몬주유소,서울특별시 관악구 남부순환로 1753 (봉천동),S-OIL,N,"1,756","1,696",Y,N,N,N,N,관악구,37.4823516,126.9450665
103,CJ대한통운㈜ 신림주유소,서울 관악구 남부순환로 1515 (신림동),GS칼텍스,N,"1,758","1,748",Y,N,N,N,N,관악구,37.482932,126.9188649
104,지에스칼텍스㈜ 난곡주유소,서울 관악구 난곡로 206,GS칼텍스,N,"1,782","1,757",N,N,N,N,N,관악구,37.4733457,126.9187577
105,(주)창원CW,서울 광진구 광나루로 460 (화양동),현대오일뱅크,Y,"1,544","1,494",Y,N,N,N,N,광진구,37.5450546,127.0803615
106,현대오일뱅크(주)직영 능동주유소,서울 광진구 천호대로 584 (능동),현대오일뱅크,Y,"1,544","1,494",Y,N,Y,N,Y,광진구,37.5555727,127.0823555
107,현대오일뱅크(주) 중원셀프주유소,서울 광진구 동일로 398 (중곡동),현대오일뱅크,Y,"1,546","1,497",Y,N,N,N,N,광진구,37.5626197,127.0853672
108,현대오일뱅크(주)직영 중곡현대주유소,서울 광진구 동일로 435 (중곡동),현대오일뱅크,Y,"1,546","1,499",Y,N,N,N,N,광진구,37.5609019,127.095729
109,현대오일뱅크㈜직영 장호셀프주유소,서울 광진구 자양로 37 (자양동),현대오일뱅크,Y,"1,565","1,524",Y,N,Y,N,N,광진구,37.53122219999999,127.0857552
110,용마주유소,서울 광진구 용마산로 68 (중곡동),GS칼텍스,N,"1,594","1,534",N,N,N,N,N,광진구,37.5596944,127.087859
111,대원주유소,서울 광진구 용마산로 122 (중곡동),S-OIL,N,"1,594","1,534",N,N,N,N,N,광진구,37.5645204,127.0870429
112,(주)장수주유소,서울 광진구 동일로 266 (군자동),SK에너지,N,"1,595","1,594",N,N,Y,N,Y,광진구,37.5549591,127.0715183
113,정해네트웍스(주)일진주유소,서울 광진구 동일로 413 (중곡동),S-OIL,Y,"1,597","1,497",Y,N,N,N,Y,광진구,37.5680828,127.0889827
114,태양주유소,서울 광진구 동일로 345 (중곡동),현대오일뱅크,N,"1,654","1,594",N,N,N,N,Y,광진구,37.5626197,127.0853672
115,삼호주유소,서울 광진구 천호대로 809 (광장동),S-OIL,Y,"1,657","1,637",Y,N,N,N,Y,광진구,37.5456366,127.1036719
116,유니스에너지 자양주유소,서울 광진구 아차산로 298 (자양동),SK에너지,N,"1,668","1,648",Y,N,N,N,Y,광진구,37.5324005,127.0715809
117,강평주유소,서울 광진구 아차산로 616 (광장동),SK에너지,N,"1,698","1,648",Y,N,N,N,Y,광진구,37.5475468,127.1072399
118,서서울고속주유소,서울 구로구 경인로 150 (오류동),SK에너지,Y,"1,550","1,485",Y,N,N,N,Y,구로구,37.49164,126.8428088
119,신성주유소,서울 구로구 구로동로 187 (구로제2동),현대오일뱅크,Y,"1,565","1,525",Y,N,N,N,N,구로구,37.49511,126.8823151
120,극동유화(주) 항동주유소,서울 구로구 서해안로 2154 (항동),S-OIL,Y,"1,565","1,485",Y,N,N,N,N,구로구,37.4911149,126.8395931
121,남선석유(주)풀페이주유소,서울 구로구 경인로 41 (온수동),S-OIL,Y,"1,565","1,485",Y,N,N,N,N,구로구,37.4899652,126.8254874
122,처음처럼주유소,서울 구로구 오리로 1299 (궁동),S-OIL,N,"1,569","1,498",N,N,N,N,N,구로구,37.5003075,126.8289067
123,(주)한미석유구로그린주유소,서울 구로구 구로중앙로 76 (구로동),GS칼텍스,Y,"1,575","1,505",Y,N,Y,N,N,구로구,37.4962231,126.8885534
124,구인주유소,서울 구로구 경인로 558 (구로동),SK에너지,N,"1,584","1,544",Y,N,Y,Y,N,구로구,37.504209,126.8860667
125,SK구로주유소,서울 구로구 구일로 94 (구로동),SK에너지,N,"1,584","1,544",Y,N,N,N,N,구로구,37.4935494,126.8721653
126,현대오일뱅크㈜직영 신오류주유소,서울 구로구 경인로 161 (오류동),현대오일뱅크,N,"1,597","1,529",Y,N,Y,N,N,구로구,37.491358,126.839872
127,대원셀프주유소,서울 구로구 개봉로 7,현대오일뱅크,Y,"1,597","1,567",Y,N,N,N,N,구로구,37.4860529,126.8560668
128,SK에너지(주)직영 개봉동주유소,서울 구로구 경인로 290 (개봉동),SK에너지,N,"1,599","1,564",Y,N,N,N,N,구로구,37.4863179,126.8570058
129,대성산업(주)디큐브주유소,서울 구로구 경인로 650 (신도림동),GS칼텍스,N,"1,619","1,515",N,N,N,N,Y,구로구,37.5078523,126.887069
130,JHC에너지,서울 구로구 시흥대로 539,현대오일뱅크,N,"1,625","1,580",N,N,Y,N,N,구로구,37.4813879,126.8997699
131,개봉주유소,서울 구로구 고척로 115 (개봉동),현대오일뱅크,Y,"1,627","1,597",Y,N,N,N,N,구로구,37.5019132,126.846819
132,현대오일뱅크(주)직영 신구로주유소,서울 구로구 가마산로 293 (구로동),현대오일뱅크,N,"1,627","1,599",Y,N,N,N,N,구로구,37.4974745,126.8924749
133, 현대오일뱅크㈜직영 구로셀프주유소,서울 구로구 시흥대로 531,현대오일뱅크,Y,"1,627","1,594",Y,N,Y,N,Y,구로구,37.4808979,126.8993011
134,근린공원주유소,서울 구로구 고척로 199 (고척동),S-OIL,N,"1,657","1,657",Y,N,N,N,N,구로구,37.5050911,126.8554371
135,영진주유소,서울 구로구 구로동로 20 (가리봉동),S-OIL,N,"1,867","1,797",N,N,N,N,N,구로구,37.4836403,126.8869533
136,동아주유소,서울 구로구 도림로 91 (구로동),S-OIL,N,"1,898","1,698",N,N,N,Y,N,구로구,37.4907961,126.8931581
137,구로주유소,서울 구로구 구로동로 137 (구로동),GS칼텍스,N,"2,198","2,198",N,N,N,N,N,구로구,37.490737,126.883519
138,구광주유소,서울 금천구 서부샛길 674 (가산동),S-OIL,N,"1,575","1,515",Y,N,N,N,N,금천구,37.4819679,126.8751491
139,(주)화동유업 화동주유소,서울 금천구 시흥대로 484,SK에너지,Y,"1,596","1,534",Y,N,N,N,N,금천구,37.4767708,126.8991661
140,(주)백운주유소,서울 금천구 시흥대로 282 (독산동),알뜰주유소,Y,"1,598","1,525",N,N,N,N,N,금천구,37.45885150000001,126.8993418
141,현대오일뱅크(주)직영 금천현대셀프주유소,서울 금천구 독산로 147 (시흥동),현대오일뱅크,Y,"1,635","1,595",Y,N,N,N,N,금천구,37.4604604,126.904433
142,현대오일뱅크㈜직영 금천제일주유소,서울 금천구 남부순환로 1410 (독산동),현대오일뱅크,N,"1,639","1,599",Y,N,N,N,N,금천구,37.4801783,126.9074941
143,지에스칼텍스(주)일신주유소,서울 금천구 시흥대로 118,GS칼텍스,Y,"1,645","1,535",Y,N,N,N,N,금천구,37.44449040000001,126.9042647
144,SK에너지(주) 박미주유소,서울 금천구 시흥대로 39-7 (시흥동),SK에너지,Y,"1,645","1,597",N,N,N,N,N,금천구,37.4371734,126.9024572
145,백산주유소,서울특별시 금천구 시흥대로 174 (시흥동),S-OIL,Y,"1,645","1,575",Y,N,Y,N,N,금천구,37.4496089,126.9029548
146,남서울경복에너지,서울 금천구 독산로 257 (독산동),현대오일뱅크,Y,"1,645","1,598",N,N,N,N,N,금천구,37.46981,126.9023363
147,대득에너지(금천셀프주유소),서울 금천구 시흥대로 81 (시흥동),GS칼텍스,Y,"1,645","1,535",Y,N,N,Y,Y,금천구,37.4415477,126.9031064
148,SK에너지(주) 이가주유소,서울 금천구 시흥대로 441,SK에너지,N,"1,645","1,614",Y,N,Y,N,N,금천구,37.4730006,126.8978907
149,월계주유소,서울 노원구 월계로 252 (월계동),GS칼텍스,Y,"1,535","1,499",Y,N,Y,N,N,노원구,37.6244446,127.0506987
150,이엠석유(주)배꽃나라주유소,서울 노원구 화랑로 466 (공릉1동),GS칼텍스,Y,"1,545","1,495",Y,N,Y,N,N,노원구,37.6248346,127.0737922
151,한신주유소,서울 노원구 동일로 1089 (공릉동),SK에너지,Y,"1,565","1,545",Y,N,N,N,N,노원구,37.6304778,127.0901988
152,성북역주유소,서울 노원구 광운로 95 (월계동),GS칼텍스,N,"1,568","1,538",Y,N,N,N,N,노원구,37.6260144,127.0599523
153,태릉솔밭주유소,서울 노원구 노원로 49 (공릉동),S-OIL,Y,"1,585","1,555",Y,N,N,N,Y,노원구,37.6259181,127.0855335
154,남선석유(주)구도일주유소 불암,서울 노원구 한글비석로 268 (중계동),S-OIL,Y,"1,585","1,540",Y,N,N,N,N,노원구,37.6512956,127.0773021
155,화랑대주유소,서울 노원구 화랑로 483,현대오일뱅크,Y,"1,585","1,495",Y,N,N,N,N,노원구,37.6196049,127.0807059
156,삼육주유소,서울 노원구 화랑로 822 (공릉동),SK에너지,Y,"1,585","1,555",Y,N,N,N,N,노원구,37.63862520000001,127.1090677
157,(주)소모에너지 수락산셀프주유소,서울 노원구 동일로 1772,GS칼텍스,Y,"1,595","1,555",N,N,N,N,N,노원구,37.6866099,127.0558354
158,SK에너지㈜직영 상계주유소,서울 노원구 노해로 527 (상계동),SK에너지,N,"1,635","1,585",Y,N,N,N,N,노원구,37.6559345,127.0664793
159,신성주유소,서울 노원구 월계로 328 (월계동),S-OIL,Y,"1,638","1,598",Y,N,N,N,Y,노원구,37.6287449,127.0572862
160,노원주유소,서울 노원구 동일로 1008 (공릉동),GS칼텍스,N,"1,648","1,599",Y,N,Y,N,N,노원구,37.6304778,127.0901988
161,상계동주유소,서울 노원구 노원로26길 191 (상계동),현대오일뱅크,N,"1,690","1,640",N,N,Y,N,N,노원구,37.65833740000001,127.0711447
162,하계삼호주유소,서울 노원구 공릉로 294 (하계동),GS칼텍스,N,"1,745","1,695",N,N,Y,N,N,노원구,37.6335815,127.0722699
163,도봉제일주유소(주)송만에너지,서울 도봉구 도봉로 783 (도봉동),현대오일뱅크,N,"1,529","1,495",N,N,N,N,N,도봉구,37.674434,127.0440507
164,한이에너지(주) 쌍문주유소,서울 도봉구 도봉로 547 (쌍문동),S-OIL,Y,"1,529","1,495",Y,N,Y,N,Y,도봉구,37.6522545,127.0304855
165,삼미북부셀프주유소,서울 도봉구 도봉로 437 (쌍문동),SK에너지,Y,"1,529","1,495",Y,N,N,N,Y,도봉구,37.6496008,127.0206486
166,(주)자연에너지 햇살주유소,서울 도봉구 방학로 142 (방학동),현대오일뱅크,Y,"1,549","1,495",Y,N,N,N,N,도봉구,37.6630108,127.0363981
167,(주)헨지스에너지 구도일주유소 도봉,서울 도봉구 도봉로 706 (방학동),S-OIL,Y,"1,549","1,495",Y,N,Y,N,N,도봉구,37.6668444,127.0434577
168,지에스칼텍스㈜ 방학동주유소,서울 도봉구 방학로 186,GS칼텍스,Y,"1,550","1,519",Y,N,N,N,Y,도봉구,37.6624409,127.0315058
169,지에스칼텍스㈜ 도봉주유소,서울 도봉구 도봉로 895 (도봉동),GS칼텍스,Y,"1,550","1,529",Y,N,Y,N,Y,도봉구,37.6844111,127.0454986
170,구도일주유소 파크빌,서울 도봉구 해등로3길 86 (창동),S-OIL,Y,"1,557","1,505",N,N,N,N,N,도봉구,37.6468071,127.0394314
171,동일석유(주) 창동주유소,서울 도봉구 도봉로 434 (창동),SK에너지,Y,"1,567","1,505",Y,N,Y,N,N,도봉구,37.6445794,127.0327745
172,현대오일뱅크㈜직영 도봉현대셀프주유소,서울 도봉구 도봉로 941 (도봉동),현대오일뱅크,Y,"1,569","1,519",Y,N,N,Y,N,도봉구,37.6883354,127.0453133
173,극동유화(주) 대안주유소,서울 도봉구 마들로 574 (창동),S-OIL,Y,"1,575","1,515",Y,N,Y,N,N,도봉구,37.6614812,127.0475388
174,노원교주유소,서울 도봉구 마들로 776 (도봉동),현대오일뱅크,Y,"1,595","1,515",Y,N,N,N,N,도봉구,37.678829,127.0497045
175,오복주유소,서울 도봉구 방학로 43,S-OIL,Y,"1,598","1,567",Y,N,N,N,Y,도봉구,37.6622407,127.0474237
176,대성산업(주)신창주유소,서울 도봉구 덕릉로 267 (창동),GS칼텍스,Y,"1,619","1,525",Y,N,Y,N,Y,도봉구,37.6413062,127.0401911
177,현대오일뱅크㈜직영 영신주유소,서울 도봉구 방학로 151,현대오일뱅크,N,"1,637","1,578",Y,N,N,N,N,도봉구,37.6623342,127.0354151
178,(주)쌍문셀프주유소,서울 도봉구 노해로 161 (쌍문동),현대오일뱅크,Y,"1,638","1,578",Y,N,N,N,N,도봉구,37.6490417,127.0267991
179,동서울고속주유소,서울 동대문구 한천로 414,SK에너지,Y,"1,530","1,490",N,N,N,N,Y,동대문구,37.59751120000001,127.068033
180,삼영주유소,서울 동대문구 답십리로 258 (장안동),SK에너지,N,"1,545","1,525",Y,N,N,N,N,동대문구,37.57224679999999,127.06882
181,재정제2주유소,서울 동대문구 사가정로 90 (전농동),현대오일뱅크,Y,"1,545","1,524",Y,N,N,N,N,동대문구,37.575785,127.0556357
182,풍한주유소,서울 동대문구 안암로 168,SK에너지,N,"1,545","1,515",Y,N,N,N,Y,동대문구,37.5891723,127.0359785
183,재정주유소,서울 동대문구 전농로 121 (전농동),현대오일뱅크,Y,"1,545","1,524",Y,N,N,N,N,동대문구,37.5756532,127.0574125
184,열린주유소,서울 동대문구 한천로 263 (휘경동),S-OIL,N,"1,557","1,490",N,N,N,N,N,동대문구,37.5843348,127.0676289
185,삼미상사(주)장안킹셀프주유소,서울 동대문구 한천로 100 (장안동),SK에너지,Y,"1,589","1,578",Y,N,N,N,N,동대문구,37.5789822,127.0696339
186,(주)파랑에너지,서울 동대문구 망우로 126,GS칼텍스,Y,"1,595","1,500",Y,N,N,N,N,동대문구,37.591192,127.0670882
187,(주)경동주유소,서울 동대문구 이문로 191 (이문동),S-OIL,Y,"1,595","1,545",Y,N,N,N,N,동대문구,37.6036095,127.0617858
188,(주)안국에너지 삼원셀프주유소,서울 동대문구 망우로 90 (휘경동),SK에너지,Y,"1,608","1,558",Y,N,N,N,N,동대문구,37.5901174,127.0631566
189,홍능주유소,서울 동대문구 홍릉로 87 (청량리동),S-OIL,N,"1,615","1,575",Y,N,N,N,N,동대문구,37.5880321,127.0425684
190,현대오일뱅크㈜직영 스피드주유소,서울 동대문구 천호대로 453 (장안동),현대오일뱅크,N,"1,618","1,577",Y,N,N,N,Y,동대문구,37.56319800000001,127.0696548
191,대성산업㈜청량리주유소,서울 동대문구 왕산로 289 (청량리동),GS칼텍스,Y,"1,619","1,530",Y,N,N,N,Y,동대문구,37.5813765,127.0450573
192,대성산업(주)동마장주유소,서울 동대문구 고산자로 405 (용두동),GS칼텍스,Y,"1,619","1,530",Y,N,Y,N,Y,동대문구,37.57570339999999,127.0376115
193,배봉로주유소,서울 동대문구 서울시립대로 108,현대오일뱅크,Y,"1,645","1,595",Y,N,N,N,N,동대문구,37.5800075,127.051056
194,오동나무주유소,서울 동대문구 한천로 81 (답십리동),S-OIL,N,"1,658","1,598",N,N,N,N,N,동대문구,37.5688954,127.0634055
195,한영주유소 (한화),서울 동대문구 망우로 38 (휘경동),현대오일뱅크,N,"1,790","1,539",N,N,N,N,N,동대문구,37.588455,127.057499
196,창원이엔지주유소,서울 동작구 사당로 59 (상도동),현대오일뱅크,Y,"1,555","1,535",Y,N,N,N,N,동작구,37.4948932,126.9614301
197,지에스칼텍스(주) 대방주유소,서울 동작구 여의대방로 214,GS칼텍스,N,"1,595","1,535",N,N,N,N,N,동작구,37.5056797,126.9229038
198,매일주유소,서울 동작구 상도로 139 (상도동),S-OIL,Y,"1,599","1,659",Y,N,N,N,N,동작구,37.5027158,126.9350931
199,현대오일뱅크㈜직영 신대방셀프주유소,서울 동작구 시흥대로 616 (신대방동),현대오일뱅크,Y,"1,617","1,604",Y,N,Y,Y,Y,동작구,37.4871156,126.9055658
200,지에스칼텍스㈜직영 남성주유소,서울 동작구 동작대로 135 (사당동),GS칼텍스,Y,"1,649","1,659",N,N,N,N,Y,동작구,37.4886663,126.9819562
201,현대오일뱅크(주)직영 사당셀프주유소,서울 동작구 동작대로 73 (사당동),현대오일뱅크,Y,"1,659","1,674",Y,N,N,N,Y,동작구,37.4830715,126.9815177
202,현대오일뱅크㈜직영 흑석동셀프주유소,서울 동작구 현충로 101 (흑석동),현대오일뱅크,Y,"1,659","1,674",Y,N,N,N,Y,동작구,37.5084548,126.9621517
203,현대오일뱅크(주)직영 동작주유소,서울 동작구 상도로 403 (상도동),현대오일뱅크,N,"1,669","1,684",Y,N,N,N,N,동작구,37.493427,126.9565053
204,살피재주유소,서울 동작구 상도로 334,SK에너지,N,"1,775","1,765",N,N,N,N,N,동작구,37.49832110000001,126.9513763
205,마포시엠주유소,서울 마포구 월드컵북로 62,SK에너지,N,"1,527","1,497",N,N,N,N,N,마포구,37.5840042,126.8850634
206,청원주유소,서울 마포구 월드컵북로 113 (성산동),현대오일뱅크,Y,"1,577","1,527",Y,N,N,N,N,마포구,37.5695475,126.9090302
207,성산대교셀프주유소,서울 마포구 성산로 144,현대오일뱅크,Y,"1,577","1,527",Y,N,Y,N,N,마포구,37.5643058,126.9094768
208,성산주유소,서울 마포구 월드컵북로 170 (성산제2동),SK에너지,N,"1,577","1,527",N,N,N,N,N,마포구,37.5674364,126.9098126
209,(주)안국에너지 망원동주유소,서울 마포구 월드컵로 119 (망원동),SK에너지,N,"1,638","1,588",Y,N,N,N,N,마포구,37.5587422,126.9072625
210,에쓰오일(주) 염리동주유소,서울 마포구 백범로 126 (염리동),S-OIL,Y,"1,639","1,649",Y,N,N,N,N,마포구,37.5461825,126.9446915
211,에스에스오토셀프,서울 마포구 서강로 76 (창전동),현대오일뱅크,Y,"1,639","1,649",Y,N,N,N,Y,마포구,37.5497919,126.9326402
212,용강주유소,서울 마포구 토정로 258,S-OIL,N,"1,639","1,649",N,N,N,N,N,마포구,37.542977,126.9388004
213,(주)만성상사 대흥주유소,서울 마포구 대흥로 61 (대흥동),SK에너지,N,"1,659","1,659",Y,N,N,N,Y,마포구,37.5459142,126.9398836
214,SK에너지(주) 안국주유소,서울 마포구 양화로 33,SK에너지,N,"1,699","1,739",N,N,N,N,Y,마포구,37.5492628,126.9125773
215,SK에너지 양지주유소,서울 마포구 마포대로 69 (도화동),SK에너지,N,"1,699","1,749",N,N,Y,Y,Y,마포구,37.5376496,126.9463971
216,마포주유소,서울 마포구 마포대로 186 (공덕동),S-OIL,N,"1,898","1,898",Y,N,N,N,N,마포구,37.5506944,126.9505988
217,구도일주유소 두꺼비,서울 서대문구 성산로 312,S-OIL,Y,"1,544","1,538",Y,N,Y,N,N,서대문구,37.5659928,126.924833
218,(주)미래아스팔트 신우주유소,서울 서대문구 가좌로 106(홍은동),S-OIL,Y,"1,544","1,538",Y,N,Y,N,N,서대문구,37.5822173,126.9265787
219,(주)창원이엔지 홍제지점,서울 서대문구 통일로 455 (홍제동),현대오일뱅크,N,"1,544","1,535",N,N,N,N,N,서대문구,37.5895561,126.9494023
220,지에스칼텍스(주)홍제동주유소,서울 서대문구 통일로 372,GS칼텍스,Y,"1,550","1,554",Y,N,N,N,N,서대문구,37.5835317,126.9501992
221,㈜우남에너지 문화사랑주유소,서울 서대문구 세검정로 87 (홍제동),S-OIL,Y,"1,569","1,579",Y,N,N,N,N,서대문구,37.595423,126.9484173
222,(주)가재울뉴타운주유소,서울 서대문구 모래내로 205,현대오일뱅크,Y,"1,573","1,538",N,N,N,Y,Y,서대문구,37.5792768,126.933107
223,남정주유소,서울 서대문구 모래내로 243 (남가좌동),GS칼텍스,N,"1,578","1,558",N,N,N,N,N,서대문구,37.574463,126.9153354
224,현대오일뱅크(주)직영 연세주유소,서울 서대문구 연희로 184,현대오일뱅크,Y,"1,589","1,559",Y,N,N,N,N,서대문구,37.573442,126.9359117
225,삼미상사(주)서부주유소,서울 서대문구 성산로 255,SK에너지,Y,"1,597","1,587",Y,N,Y,Y,N,서대문구,37.5677169,126.9189548
226,(주)안국에너지 삼보셀프주유소,서울 서대문구 연희로 78 (연희동),SK에너지,Y,"1,608","1,578",Y,N,Y,N,N,서대문구,37.5649687,126.92993
227,중앙에너비스 동교지점,서울 서대문구 연희로 12 (창천동),SK에너지,Y,"1,615","1,575",N,N,N,Y,N,서대문구,37.5584944,126.9345627
228,광호주유소,서울 서대문구 연희로 266 (홍은동),SK에너지,N,"1,628","1,598",Y,N,N,N,N,서대문구,37.5807121,126.9365769
229,연희주유소,서울 서대문구 연희로 129 (연희동 89-7번지),SK에너지,N,"1,628","1,598",Y,N,N,Y,N,서대문구,37.5692438,126.9324894
230,행촌제2주유소,서울 서대문구 성산로 490 (대신동),SK에너지,Y,"1,643","1,567",Y,N,N,Y,Y,서대문구,37.5677894,126.9488821
231,만남의광장주유소,서울 서초구 양재대로12길 73-71,알뜰(ex),Y,"1,534","1,494",N,Y,N,Y,Y,서초구,37.4599063,127.0420601
232,극동유화(주) 전당앞주유소,서울 서초구 남부순환로 2391 (서초동),S-OIL,Y,"1,595","1,625",Y,Y,Y,N,N,서초구,37.480541,127.0119248
233,양재최고주유소,서울 서초구 매헌로 72 (양재동),S-OIL,N,"1,598","1,598",Y,N,N,N,N,서초구,37.4670964,127.0347052
234,(주)대농석유 남태령주유소,서울 서초구 과천대로 838 (방배동),SK에너지,Y,"1,605","1,595",Y,N,N,N,N,서초구,37.46678,126.9879585
235,(주)한미석유 서초주유소,서울 서초구 반포대로 64 (서초동),GS칼텍스,Y,"1,615","1,645",N,N,N,N,N,서초구,37.4861448,127.0107621
236,에쓰오일(주)직영 오토테크주유소,서울특별시 서초구 효령로 356 (서초동),S-OIL,Y,"1,619","1,659",Y,N,Y,N,N,서초구,37.48645339999999,127.0230515
237,서초꽃마을주유소,서울 서초구 반포대로 69 (서초동),GS칼텍스,Y,"1,625","1,655",N,N,N,N,N,서초구,37.4864212,127.0098686
238,대성석유(주)연일주유소,서울 서초구 남부순환로 2451,GS칼텍스,N,"1,626","1,678",Y,N,N,Y,N,서초구,37.4825475,127.0185027
239,태봉셀프주유소,서울 서초구 태봉로 117 (우면동),SK에너지,Y,"1,635","1,645",Y,N,Y,N,N,서초구,37.4682684,127.0281865
240,에너지플러스허브 삼방주유소,서울 서초구 사평대로 364 (서초동),GS칼텍스,Y,"1,638","1,740",Y,N,N,N,Y,서초구,37.50367079999999,127.0231767
241,현대오일뱅크㈜직영 사평로주유소,서울 서초구 사평대로 350 (서초동),현대오일뱅크,N,"1,638","1,702",Y,N,N,N,N,서초구,37.503247,127.0215027
242,반포그린주유소,서울 서초구 서초중앙로 239 (반포동),GS칼텍스,Y,"1,638","1,688",Y,N,N,N,N,서초구,37.5030662,127.010946
243,헌릉로주유소,서울 서초구 헌릉로 177 (내곡동),S-OIL,Y,"1,639","1,699",N,N,N,N,N,서초구,37.4574054,127.0601804
244,신반포주유소,서울 서초구 사평대로 94 (반포동),SK에너지,Y,"1,641","1,681",Y,N,N,N,Y,서초구,37.4983258,126.9949336
245,한독주유소,서울 서초구 방배로 218 (방배동),GS칼텍스,Y,"1,641","1,681",N,N,N,N,N,서초구,37.4927228,126.9908766
246,현대오일뱅크(주)직영 팔레스주유소,서울 서초구 사평대로 136 (반포동),현대오일뱅크,N,"1,642","1,682",N,N,N,N,Y,서초구,37.5000819,126.9991738
247,지에스칼텍스(주)선천주유소,서울 서초구 동작대로 206 (방배동),GS칼텍스,N,"1,649","1,659",Y,N,N,N,N,서초구,37.4948943,126.9832005
248,현대오일뱅크㈜직영 양재현대주유소,서울 서초구 마방로 6,현대오일뱅크,N,"1,659","1,659",Y,N,N,N,N,서초구,37.4735423,127.0397686
249,양재주유소,서울 서초구 바우뫼로 178,SK에너지,N,"1,659","1,659",Y,N,N,N,Y,서초구,37.4780706,127.03961
250,말죽거리주유소,서울 서초구 남부순환로 2650 (양재동),GS칼텍스,N,"1,666","1,686",N,N,N,N,N,서초구,37.4851407,127.0406537
251,대성산업(주)직영 강남주유소,서울 서초구 반포대로 284 (반포동),GS칼텍스,Y,"1,668","1,669",N,N,N,N,N,서초구,37.50460229999999,127.0018098
252,대신석유(주)대우주유소,서울 서초구 양재대로 173 (양재동),SK에너지,Y,"1,669","1,667",Y,N,N,Y,Y,서초구,37.46283870000001,127.0374413
253,현대오일뱅크(주)직영 서초제일주유소,서울 서초구 사임당로 116 (서초동),현대오일뱅크,N,"1,674","1,704",Y,N,N,N,N,서초구,37.4904892,127.0226088
254,현대오일뱅크(주)직영 방배현대주유소,서울 서초구 동작대로 182 (방배동),현대오일뱅크,N,"1,674","1,714",Y,N,Y,N,N,서초구,37.4927581,126.9832272
255,대성산업(주)직영 터미널(고속)주유소,서울 서초구 신반포로 222 (반포동),GS칼텍스,N,"1,698","1,679",Y,N,N,N,Y,서초구,37.5067869,127.0087106
256,지에스칼텍스(주)남서울주유소,서울 서초구 나루터로 83 (잠원동),GS칼텍스,N,"1,750","1,712",Y,N,N,Y,Y,서초구,37.5161162,127.018846
257,방배동주유소,서울 서초구 효령로 29 (방배동),SK에너지,N,"1,793","1,791",Y,N,N,N,N,서초구,37.4780874,126.9877574
258,(주)홈런주유소,서울 서초구 양재대로2길 100-30 (우면동),S-OIL,Y,"1,798","1,798",Y,N,N,N,Y,서초구,37.4644963,127.0417509
259,(주)선문에너지 중앙주유소,서울특별시 서초구 바우뫼로 219 (양재1동),S-OIL,N,"1,989","2,098",Y,N,N,N,N,서초구,37.4815383,127.0422126
260,대신석유㈜서원주유소,서울 서초구 반포대로 142 (서초동),SK에너지,N,"1,998","1,998",Y,N,N,N,N,서초구,37.4927077,127.0076076
261,(주)서울에너지 직영,서울 성동구 천호대로 324 (용답동),S-OIL,Y,"1,544","1,524",Y,N,N,N,Y,성동구,37.5641954,127.0555794
262,정호주유소,서울 성동구 고산자로 307 (마장동),자가상표,N,"1,595","1,535",N,N,N,N,N,성동구,37.5668696,127.0363928
263,KLP제2주유소,서울 성동구 동일로 249 (송정동),현대오일뱅크,Y,"1,595","1,514",N,N,N,N,N,성동구,37.5538684,127.0703265
264,현대오일뱅크(주) 성동셀프주유소,서울 성동구 마장로 311 (마장동),현대오일뱅크,Y,"1,595","1,565",Y,N,N,N,N,성동구,37.5669759,127.0437017
265,지에스칼텍스㈜ 도루코주유소,서울 성동구 아차산로 180,GS칼텍스,Y,"1,596","1,533",Y,N,Y,N,Y,성동구,37.5419698,127.063446
266,삼우주유소,서울 성동구 천호대로 392,SK에너지,N,"1,598","1,598",Y,N,N,N,N,성동구,37.5613925,127.0622849
267,현대오일뱅크㈜직영 효진주유소,서울 성동구 동일로 129,현대오일뱅크,N,"1,616","1,553",Y,N,N,N,N,성동구,37.5440751,127.064635
268,SK에너지(주) 군자동주유소,서울 성동구 천호대로 446 (용답동),SK에너지,N,"1,629","1,579",Y,N,N,N,Y,성동구,37.56051280000001,127.0682779
269,SK에너지(주) 성수주유소,서울 성동구 뚝섬로 352 (성수동1가),SK에너지,N,"1,679","1,699",Y,N,N,N,N,성동구,37.5399558,127.0498823
270,SK KH에너지 성수만세주유소,서울 성동구 왕십리로 109,SK에너지,Y,"1,698","1,678",Y,N,Y,Y,N,성동구,37.5474233,127.044265
271,SK세원2주유소,서울 성동구 광나루로 184 (성수동1가),SK에너지,N,"1,760","1,725",Y,N,Y,N,N,성동구,37.5508115,127.0504428
272,금호주유소,서울 성동구 금호로 39 (금호동4가),GS칼텍스,N,"1,842","1,842",N,N,N,N,N,성동구,37.5470255,127.0250296
273,동일주유소,서울 성동구 광나루로 254 (성수동2가),현대오일뱅크,N,"1,899","1,887",Y,N,N,N,N,성동구,37.548454,127.0578139
274,청계로주유소,서울 성동구 청계천로 454 (하왕십리동),SK에너지,N,"2,098","2,097",Y,N,N,N,N,성동구,37.5700016,127.0273779
275,(주)옥수하이웨이스테이션,서울 성동구 독서당로 168 (옥수동),GS칼텍스,N,"2,135","2,098",N,N,N,N,N,성동구,37.5409535,127.0113872
276,(주)삼표에너지 정릉주유소,서울 성북구 보국문로 35 (정릉동),GS칼텍스,Y,"1,525","1,485",Y,N,Y,N,N,성북구,37.6076598,127.0098583
277,이케이에너지(주) 강산제2주유소,서울 성북구 보국문로 52,현대오일뱅크,Y,"1,525","1,485",Y,N,N,N,N,성북구,37.6091627,127.0100739
278,(주)성북주유소,서울 성북구 보문로 142,현대오일뱅크,Y,"1,535","1,535",Y,N,N,N,N,성북구,37.5876306,127.0183757
279,재정제2주유소 길음지점,서울 성북구 삼양로 78 (길음동),현대오일뱅크,N,"1,539","1,559",N,N,N,N,N,성북구,37.6102602,127.0227323
280,원천주유소,서울 성북구 돌곶이로 142 (장위동),알뜰주유소,N,"1,539","1,475",N,N,N,N,N,성북구,37.614921,127.0527521
281,이케이에너지㈜ 강산주유소,서울 성북구 보문로 27 (보문동7가),GS칼텍스,Y,"1,545","1,495",Y,N,N,N,Y,성북구,37.5797898,127.0225999
282,㈜명연에너지 효성주유소,서울 성북구 화랑로 27,GS칼텍스,N,"1,555","1,525",Y,N,Y,N,Y,성북구,37.6031617,127.0353088
283,우리주유소,서울 성북구 화랑로 292,SK에너지,Y,"1,565","1,495",Y,N,Y,N,Y,성북구,37.6126933,127.0612878
284,장위주유소,서울 성북구 화랑로 110 (하월곡동),S-OIL,Y,"1,565","1,495",Y,N,N,N,Y,성북구,37.6041779,127.0409997
285,(주)신용 구도일주유소화랑로,서울 성북구 화랑로 174,S-OIL,Y,"1,573","1,543",Y,N,Y,N,N,성북구,37.6068649,127.0500704
286,SK에너지(주) 드림랜드주유소,서울 성북구 월계로 128 (장위동),SK에너지,N,"1,574","1,534",N,N,N,N,N,성북구,37.6165378,127.041418
287,현대오일뱅크㈜직영 고대셀프주유소,서울 성북구 종암로 12 (종암동),현대오일뱅크,Y,"1,585","1,525",Y,N,N,N,N,성북구,37.5916818,127.0366505
288,지에스칼텍스(주) 종암주유소,서울 성북구 종암로 145 (종암동),GS칼텍스,Y,"1,585","1,525",Y,N,N,N,Y,성북구,37.602751,127.0320219
289,현대오일뱅크㈜직영 장삼주유소,서울 성북구 한천로 612 (장위동),현대오일뱅크,Y,"1,585","1,545",Y,N,N,Y,N,성북구,37.613583,127.0602017
290,현대오일뱅크㈜직영 북악셀프주유소,서울 성북구 정릉로 218 (정릉동),현대오일뱅크,Y,"1,587","1,547",Y,N,N,N,N,성북구,37.6054734,127.0085146
291,중앙에너비스 종암지점,서울 성북구 종암로 58,SK에너지,Y,"1,595","1,515",Y,N,N,N,Y,성북구,37.5956106,127.0360234
292,신동방주유소,서울 성북구 월계로 84 (장위동),S-OIL,Y,"1,595","1,525",N,N,N,N,N,성북구,37.6134086,127.0381078
293,동일주유소,서울특별시 성북구 보문로 85 (보문동5가),S-OIL,Y,"1,605","1,585",Y,N,N,N,Y,성북구,37.58266,127.0191769
294,신방주유소,서울 성북구 안암로 111 (안암동5가),S-OIL,N,"1,619","1,579",N,N,N,N,N,성북구,37.5855042,127.031798
295,현대오일뱅크㈜직영 아리랑주유소,서울 성북구 아리랑로 96 (정릉동),현대오일뱅크,N,"1,637","1,577",Y,N,N,N,Y,성북구,37.6004781,127.014224
296,삼선주유소,서울 성북구 창경궁로 324,S-OIL,Y,"1,675","1,535",Y,N,N,N,N,성북구,37.5879082,127.005575
297,지에스칼텍스㈜ 화랑주유소,서울 성북구 화랑로 185,GS칼텍스,N,"1,769","1,781",N,N,N,N,N,성북구,37.6078298,127.0507241
298,지에스칼텍스㈜ 세창주유소,서울 성북구 동소문로 323,GS칼텍스,Y,"1,777","1,783",N,N,N,N,N,성북구,37.6087501,127.0295068
299,위례제일주유소,서울 송파구 위례서로 260,S-OIL,Y,"1,563","1,564",Y,N,N,N,N,송파구,37.5145437,127.1065971
300,(주)삼표에너지 우리주유소,서울 송파구 동남로 153,GS칼텍스,Y,"1,577","1,619",Y,N,N,N,N,송파구,37.4924385,127.1273761
301,지에스이앤알 직영 송파제일주유소,서울 송파구 삼학사로 50 (석촌동),현대오일뱅크,Y,"1,577","1,617",Y,N,Y,N,Y,송파구,37.5016389,127.0972415
302,한강에너지(주)퍼스트주유소,서울 송파구 삼학사로 22 (석촌동),SK에너지,Y,"1,577","1,617",Y,N,Y,N,N,송파구,37.4992615,127.0970677
303,완불주유소,서울 송파구 송파대로 3 (장지동),SK에너지,Y,"1,582","1,582",Y,N,N,N,Y,송파구,37.480358,127.144757
304,위례드림주유소,서울시 송파구 위례중앙로 10,S-OIL,Y,"1,583","1,564",Y,N,N,N,Y,송파구,37.4747249,127.1406367
305,지에스칼텍스(주)가든파이브주유소,서울 송파구 탄천동로 740,GS칼텍스,Y,"1,583","1,564",Y,N,N,Y,Y,송파구,37.4933874,127.0970049
306,상아주유소,서울 송파구 거마로 82,S-OIL,Y,"1,583","1,564",Y,N,N,N,N,송파구,37.49999469999999,127.1478649
307,남성대주유소,서울 송파구 송파대로 52 (장지동),SK에너지,Y,"1,583","1,564",Y,N,Y,N,Y,송파구,37.483207,127.1360678
308,지에스칼텍스(주)스마트위례주유소,서울 송파구 위례중앙로 43 (장지동),GS칼텍스,Y,"1,583","1,564",Y,N,N,N,N,송파구,37.4747249,127.1406367
309,(주)삼표에너지 아시아주유소,서울 송파구 도곡로 438 (잠실동),GS칼텍스,Y,"1,587","1,617",Y,N,N,N,N,송파구,37.5045724,127.0773804
310,방이주유소,서울 송파구 위례성대로12길 38 (방이동),SK에너지,N,"1,587","1,617",Y,N,Y,N,N,송파구,37.5106482,127.1207327
311,대성석유(주)석촌주유소,서울 송파구 백제고분로 289,GS칼텍스,N,"1,587","1,619",N,N,Y,N,N,송파구,37.5028085,127.0985428
312,삼화주유소,서울 송파구 백제고분로 125,GS칼텍스,Y,"1,587","1,617",N,N,N,N,Y,송파구,37.5066136,127.0808774
313,대성주유소,서울 송파구 마천로 230 (마천동),SK에너지,N,"1,588","1,598",Y,N,N,N,N,송파구,37.498913,127.1579788
314,(주)유진주유소,서울 송파구 동남로 325 (오금동),SK에너지,N,"1,591","1,617",Y,N,N,N,N,송파구,37.5044957,127.1383244
315,(주)삼표에너지 훼미리주유소,서울 송파구 중대로 58 (문정동),GS칼텍스,N,"1,597","1,625",Y,N,N,N,N,송파구,37.4911956,127.1153371
316,삼전셀프주유소,서울 송파구 백제고분로 199,SK에너지,Y,"1,597","1,617",Y,N,N,N,Y,송파구,37.5043717,127.089132
317,현대오일뱅크㈜직영 잠실셀프주유소,서울 송파구 송파대로 397 (석촌동),현대오일뱅크,Y,"1,597","1,617",N,N,N,N,Y,송파구,37.5026732,127.1089745
318,(주)신화에너지 서울지점,서울 송파구 가락로 47 (석촌동),SK에너지,Y,"1,599","1,617",Y,N,Y,N,Y,송파구,37.499472,127.1017541
319,(주)잠실에너지,서울 송파구 송파대로 442 (송파동),S-OIL,Y,"1,613","1,619",Y,N,Y,N,Y,송파구,37.50460899999999,127.1119305
320,백제고분로주유소,서울 송파구 오금로 143 (방이동),SK에너지,Y,"1,613","1,619",Y,N,Y,Y,Y,송파구,37.5121952,127.1168471
321,(주)정직한주유소,서울 송파구 오금로 455 (거여동),현대오일뱅크,Y,"1,618","1,628",Y,N,N,N,N,송파구,37.4900434,127.1462058
322,제트라인DM주유소,서울 송파구 중대로 183 (가락동),현대오일뱅크,N,"1,625","1,625",N,N,Y,N,N,송파구,37.498494,127.125356
323,송파주유소,서울 송파구 송이로 28 (송파동),GS칼텍스,Y,"1,625","1,633",N,N,Y,N,N,송파구,37.5087961,127.1063816
324,(주)퍼스트오일서울주유소,서울 송파구 문정로 153,S-OIL,N,"1,630","1,670",N,N,N,N,N,송파구,37.4931962,127.1363101
325,(주)뉴명성산업 남성주유소,서울 송파구 백제고분로 474 (방이동),현대오일뱅크,N,"1,645","1,695",Y,N,N,N,N,송파구,37.5125561,127.1140297
326,현대오일뱅크㈜직영 올림픽셀프주유소,서울 송파구 위례성대로 188 (오금동),현대오일뱅크,Y,"1,658","1,617",Y,N,Y,Y,Y,송파구,37.5096342,127.1318961
327,대신석유(주)진양주유소,서울 송파구 올림픽로 499 (풍납동),SK에너지,N,"1,898","1,898",Y,N,N,N,N,송파구,37.5336366,127.1205963
328,(주)타이거오일 신정주유소,서울 양천구 중앙로 226 (신정동),SK에너지,Y,"1,519","1,499",N,N,N,N,N,양천구,37.5167682,126.8546569
329,삼미상사(주)신월IC셀프주유소,서울 양천구 중앙로 331 (신월동),SK에너지,Y,"1,524","1,499",N,N,Y,N,N,양천구,37.5254507,126.8497568
330,지에스이앤알 직영 서울주유소,서울 양천구 신정로 236 (신정동),GS칼텍스,Y,"1,529","1,509",Y,N,N,N,N,양천구,37.5105184,126.8476876
331,현대주유소,서울 양천구 남부순환로 372 (신월동),S-OIL,Y,"1,535","1,472",Y,N,N,N,N,양천구,37.5338107,126.8292398
332,플라트(주)서호주유소,서울 양천구 남부순환로 317,GS칼텍스,N,"1,535","1,472",Y,N,Y,N,N,양천구,37.5385523,126.8269276
333,양천구주유소,서울 양천구 국회대로 275 (목동),알뜰주유소,Y,"1,544","1,517",Y,N,Y,N,Y,양천구,37.5302832,126.8655289
334,형산석유(주)원주유소,서울 양천구 남부순환로 408,현대오일뱅크,N,"1,545","1,485",Y,N,Y,N,Y,양천구,37.53100269999999,126.8310216
335,개나리Self주유소,서울 양천구 남부순환로 442 (신월동),SK에너지,Y,"1,545","1,485",Y,N,Y,N,N,양천구,37.5280874,126.8329813
336,신월주유소,서울 양천구 신월로 193 (신월동),GS칼텍스,Y,"1,578","1,499",N,N,N,N,N,양천구,37.5200142,126.8440687
337,가로공원주유소,서울 양천구 가로공원로 165 (신월동),SK에너지,N,"1,578","1,517",Y,N,N,N,Y,양천구,37.5369402,126.8342781
338,현대오일뱅크(주)직영 양정주유소,서울 양천구 국회대로 158 (신정동),현대오일뱅크,N,"1,578","1,548",N,N,N,N,N,양천구,37.5280112,126.852512
339,(주)삼표에너지 목동주유소,서울 양천구 목동서로 129 (목동),GS칼텍스,Y,"1,592","1,599",Y,N,N,N,N,양천구,37.532098,126.8755213
340,현대오일뱅크(주)직영 양천셀프주유소,서울 양천구 목동로 17,현대오일뱅크,Y,"1,596","1,635",Y,N,N,N,N,양천구,37.5106085,126.8711101
341,신정동주유소,서울 양천구 안양천로 663 (신정동),현대오일뱅크,Y,"1,597","1,567",Y,N,N,Y,N,양천구,37.5063457,126.8711098
342,현대오일뱅크(주)직영 남부순환셀프주유소,서울 양천구 남부순환로 553 (신월동),현대오일뱅크,Y,"1,598","1,558",Y,N,N,Y,Y,양천구,37.5195591,126.8387341
343,SK에너지(주) 경인주유소,서울 양천구 국회대로 170 (신정동),SK에너지,Y,"1,599","1,618",Y,N,N,N,N,양천구,37.528087,126.8538198
344,SK에너지(주) 신평,서울 양천구 목동남로 62,SK에너지,N,"1,599","1,599",Y,N,Y,N,N,양천구,37.5093616,126.8662268
345,목동주유소,서울 양천구 목동중앙로 125 (목동),SK에너지,Y,"1,602","1,599",Y,N,N,N,N,양천구,37.539599,126.8745724
346,현대오일뱅크(주)직영 양천현대셀프주유소,서울 양천구 안양천로 1179 (목동),현대오일뱅크,Y,"1,612","1,599",Y,Y,Y,Y,Y,양천구,37.545811,126.8814261
347,현대오일뱅크㈜직영 목동셀프주유소,서울 양천구 공항대로 648 (목동),현대오일뱅크,Y,"1,612","1,599",N,N,N,N,N,양천구,37.5463168,126.8639087
348,지에스칼텍스㈜ 건지주유소,서울 양천구 안양천로 1171 (목동),GS칼텍스,Y,"1,612","1,599",Y,N,N,N,N,양천구,37.5451737,126.8821565
349,(주)서부트럭터미날,서울 양천구 신정로 167 (신정동),현대오일뱅크,N,"1,629","1,579",Y,N,N,N,Y,양천구,37.5091516,126.8393172
350,현대오일뱅크(주)직영 신목동셀프주유소,서울 양천구 목동동로10길 13,현대오일뱅크,Y,"1,658","1,669",Y,N,Y,N,N,양천구,37.5190709,126.8710957
351,신양주유소,서울 양천구 지양로 67,SK에너지,N,"1,699","1,749",Y,N,N,N,N,양천구,37.5214632,126.833821
352,영등포제일셀프주유소,서울 영등포구 가마산로 379,현대오일뱅크,Y,"1,527","1,495",Y,N,Y,N,N,영등포구,37.5023621,126.8994521
353,남서울고속주유소,서울 영등포구 가마산로 367 (대림동),SK에너지,Y,"1,527","1,495",Y,N,N,N,Y,영등포구,37.5015666,126.8987908
354,한경석유(주)경덕주유소,서울 영등포구 여의대방로23길 2 (신길동),SK에너지,Y,"1,535","1,515",Y,N,N,N,N,영등포구,37.4983597,126.9197576
355,도림주유소,서울 영등포구 도림로 343 (도림동),알뜰주유소,Y,"1,535","1,495",N,N,Y,N,N,영등포구,37.5076563,126.900191
356,(주)강서오일,서울 영등포구 도신로 151,현대오일뱅크,N,"1,535","1,495",N,N,N,N,Y,영등포구,37.5099691,126.9082307
357,행촌주유소,서울 영등포구 도신로 130 (신길동),SK에너지,Y,"1,535","1,495",Y,N,N,Y,Y,영등포구,37.5085141,126.9061074
358,(주)대청에너지 대청주유소,서울 영등포구 가마산로 328 (대림동),GS칼텍스,Y,"1,535","1,495",Y,N,Y,N,Y,영등포구,37.4985562,126.8957906
359,성락주유소,서울 영등포구 가마산로 414 (신길동),S-OIL,Y,"1,535","1,495",Y,N,N,N,N,영등포구,37.5037504,126.9028235
360,영등포현대셀프주유소,서울 영등포구 경인로 822 (영등포동),현대오일뱅크,Y,"1,537","1,495",N,N,N,Y,N,영등포구,37.5152891,126.9044679
361,지에스칼텍스㈜ 신길주유소,서울 영등포구 신길로 74 (신길동),GS칼텍스,Y,"1,557","1,515",Y,N,N,N,Y,영등포구,37.4990184,126.9087781
362,(주)MS에너지,서울 영등포구 대림로 230,현대오일뱅크,N,"1,557","1,495",Y,N,N,N,N,영등포구,37.5013302,126.8974032
363,㈜지에스이앤알 모드니주유소,서울 영등포구 경인로 789,GS칼텍스,N,"1,587","1,567",Y,N,N,N,N,영등포구,37.51470339999999,126.9007821
364,매봉주유소,서울 영등포구 도신로 248 (신길동),현대오일뱅크,Y,"1,587","1,567",Y,N,Y,N,N,영등포구,37.5130271,126.9183121
365,(주)지에스이앤알 보라주유소,서울 영등포구 영등포로 399 (신길동),GS칼텍스,N,"1,587","1,567",Y,N,N,N,N,영등포구,37.5134731,126.9227443
366,지에스칼텍스㈜ 화일주유소,서울 영등포구 도림로 415,GS칼텍스,Y,"1,594","1,536",N,N,N,N,N,영등포구,37.5132173,126.8964071
367,SK에너지(주) 신길동주유소,서울 영등포구 영등포로 348 (신길동),SK에너지,N,"1,599","1,569",Y,N,N,N,N,영등포구,37.5152891,126.916973
368,씨앤에스유통 한성주유소,서울 영등포구 여의대방로 227,S-OIL,N,"1,615","1,575",N,N,N,N,N,영등포구,37.5071373,126.9228727
369,(주)한미석유 제2한강주유소,서울 영등포구 선유로 260 (양평동4가),GS칼텍스,Y,"1,625","1,595",Y,N,N,N,N,영등포구,37.5374942,126.897009
370,선유도주유소,서울 영등포구 양평로 141 (양평동5가),S-OIL,Y,"1,625","1,605",Y,N,N,N,N,영등포구,37.5399253,126.8928726
371,SK에너지(주) 기린주유소,서울 영등포구 선유로 270,SK에너지,Y,"1,625","1,595",Y,N,N,Y,Y,영등포구,37.5362563,126.898953
372,SK에너지(주) 양평주유소,서울 영등포구 선유로 195 (양평동3가),SK에너지,Y,"1,625","1,595",Y,N,N,N,Y,영등포구,37.5289951,126.8924107
373,현대오일뱅크㈜직영 대일셀프주유소,서울 영등포구 영등포로 168,현대오일뱅크,Y,"1,639","1,567",N,N,N,N,N,영등포구,37.5204486,126.9000304
374,현대오일뱅크(주)직영 국회대로주유소,서울 영등포구 국회대로 746 (여의도동),현대오일뱅크,N,"1,789","1,699",Y,N,N,N,N,영등포구,37.5279651,126.9160136
375,성원이앤에스(주)영등포지점,서울 영등포구 국회대로52길 9-13 (영등포동7가),GS칼텍스,N,"1,938","1,950",N,N,N,N,N,영등포구,37.5223774,126.9078531
376,버드나룻길주유소,서울 영등포구 버드나루로 111 (당산동),SK에너지,N,"1,990","1,990",Y,N,N,N,N,영등포구,37.5279162,126.9078696
377,SK KH에너지 여의도주유소,서울 영등포구 국회대로 794 (여의도동),SK에너지,N,"2,090","2,139",Y,N,N,N,N,영등포구,37.5307038,126.9202903
378,SJ오일(주) 여의도주유소,서울 영등포구 은행로 64,GS칼텍스,N,"2,199","2,360",Y,N,N,Y,Y,영등포구,37.5303375,126.9255792
379,현대오일뱅크㈜직영 한남동주유소,서울 용산구 한남대로 204 (한남동),현대오일뱅크,N,"1,848","1,768",Y,N,Y,N,N,용산구,37.5459042,127.0028583
380,동자동주유소,서울 용산구 한강대로104길 6 (동자동),SK에너지,N,"1,980","1,910",Y,N,N,N,N,용산구,37.5494341,126.9733782
381,현대오일뱅크(주)갈월동주유소,서울특별시 용산구 한강대로 322 (남영동),현대오일뱅크,N,"1,980","1,910",Y,N,Y,N,N,용산구,37.5469552,126.9722183
382,현대오일뱅크(주)직영 소월길주유소,서울 용산구 소월로 66 (후암동),현대오일뱅크,N,"1,999","1,899",Y,N,N,N,N,용산구,37.5505548,126.9769866
383,현대오일뱅크㈜직영 강변현대주유소,서울 용산구 원효로 9 (청암동),현대오일뱅크,N,"2,012","1,899",Y,N,Y,N,N,용산구,37.5346046,126.9487786
384,(주)영원 풍기주유소,서울 용산구 원효로 178 (원효로2가),GS칼텍스,N,"2,019","1,989",N,N,N,N,N,용산구,37.5355412,126.9626861
385,(주)남경주유소,서울 용산구 녹사평대로11길 24,SK에너지,N,"2,094","2,032",Y,N,Y,N,Y,용산구,37.5222071,126.9932366
386,(주)신태성주유소,서울 용산구 원효로 147 (원효로3가),SK에너지,N,"2,109","1,985",Y,N,N,N,N,용산구,37.5336965,126.9561119
387,한남지점,서울 용산구 한남대로21길 4 (한남동),SK에너지,N,"2,217","2,197",N,N,N,N,N,용산구,37.5346573,127.0060631
388,에너비스,서울 용산구 한남대로 82 (한남동),SK에너지,N,"2,217","2,197",Y,N,N,N,N,용산구,37.5359518,127.0061296
389,한석주유소,서울 용산구 이촌로 164,SK에너지,N,"2,308","2,200",Y,N,N,N,Y,용산구,37.5214212,126.9653795
390,서계주유소,서울 용산구 청파로 367 (청파동),GS칼텍스,N,"2,679","2,675",Y,N,N,N,N,용산구,37.5522895,126.9689354
391,타이거주유소,서울 은평구 수색로 188 (증산동),SK에너지,Y,"1,524","1,519",Y,N,N,N,N,은평구,37.5843431,126.9075553
392,응암주유소,서울 은평구 응암로 163,현대오일뱅크,Y,"1,535","1,534",N,N,N,N,N,은평구,37.5867041,126.915896
393,다회주유소,서울 은평구 증산로 441 (신사동),S-OIL,Y,"1,539","1,534",N,N,N,N,N,은평구,37.5955921,126.9144513
394,불광주유소,서울 은평구 연서로 314 (불광동),현대오일뱅크,Y,"1,542","1,533",Y,N,N,N,N,은평구,37.6203679,126.9237343
395,(주)명연에너지 수색훼미리주유소,서울 은평구 수색로 236 (수색동),현대오일뱅크,Y,"1,545","1,545",Y,N,N,N,N,은평구,37.581122,126.897774
396,지에스칼텍스㈜ 녹번주유소,서울 은평구 통일로 600 (녹번동),GS칼텍스,Y,"1,550","1,554",Y,N,N,N,N,은평구,37.6005055,126.9363315
397,지에스칼텍스㈜ 신사제일주유소,서울 은평구 증산로 423 (신사동),GS칼텍스,Y,"1,550","1,549",Y,N,N,N,Y,은평구,37.594051,126.9139211
398,지에스칼텍스㈜ 서부주유소,서울 은평구 응암로 210 (응암동),GS칼텍스,Y,"1,550","1,549",Y,N,Y,N,Y,은평구,37.5906926,126.9177223
399,지에스칼텍스(주)수색뉴타운주유소,서울 은평구 수색로 350 (수색동),GS칼텍스,Y,"1,550","1,539",Y,N,N,N,N,은평구,37.5871071,126.8875419
400,(주)디오티디 은평유니콘주유소,서울 은평구 통일로 1151 (진관동),현대오일뱅크,N,"1,557","1,477",Y,N,N,N,N,은평구,37.6438385,126.9124158
401,성원이앤에스(주)은평지점,서울 은평구 통일로 968 (진관동),GS칼텍스,Y,"1,561","1,577",Y,N,N,N,N,은평구,37.6292375,126.9196753
402,은평뉴타운주유소,서울 은평구 통일로 924 (불광동),SK에너지,Y,"1,561","1,577",Y,N,Y,N,N,은평구,37.6252814,126.9203998
403,박석고개주유소,서울 은평구 통일로 945 (갈현동),SK에너지,Y,"1,571","1,577",Y,N,N,N,Y,은평구,37.6220821,126.9137086
404,대성산업㈜ 대성주유소,서울 은평구 통일로 642,GS칼텍스,Y,"1,619","1,550",Y,N,N,N,Y,은평구,37.6039651,126.9352913
405,뉴타운셀프주유소,서울 은평구 통일로 1031,S-OIL,Y,"1,625","1,635",N,N,N,N,N,은평구,37.6123992,126.9292744
406,코끼리주유소,서울 은평구 서오릉로 41 (녹번동),자가상표,N,"1,698","1,678",Y,N,N,N,N,은평구,37.6044033,126.9241965
407,현대오일뱅크㈜직영 재동주유소,서울 종로구 율곡로 58 (경운동),현대오일뱅크,Y,"1,549","1,531",N,N,N,N,N,종로구,37.5743567,126.9871406
408,안풍주유소,서울 종로구 자하문로 303,S-OIL,N,"1,659","1,659",Y,N,N,N,N,종로구,37.5991115,126.9591542
409,㈜지에스이앤알 평창주유소,서울 종로구 평창문화로 135 (평창동),현대오일뱅크,Y,"1,659","1,690",Y,N,N,N,N,종로구,37.6125337,126.9703038
410,자하문주유소,서울 종로구 자하문로 248 (부암동),SK에너지,Y,"1,669","1,699",Y,N,N,N,N,종로구,37.5963101,126.9642698
411,구도일주유소특종,서울 종로구 평창문화로 90 (평창동),S-OIL,N,"1,690","1,690",Y,N,N,N,N,종로구,37.6114973,126.9724497
412,(주)중앙에너비스 혜화주유소,서울 종로구 창경궁로35길 1,SK에너지,N,"1,915","1,613",N,N,N,N,N,종로구,37.586068,127.0010581
413,경복궁주유소,서울 종로구 율곡로 6 (중학동),GS칼텍스,N,"2,180","2,210",N,N,N,N,N,종로구,37.5760111,126.9806619
414,SK북악주유소,서울 종로구 평창문화로 137,SK에너지,N,"2,198","2,168",Y,N,N,N,N,종로구,37.5729503,126.9793579
415,(주)대양씨앤씨 사직주유소,서울 종로구 사직로 65 (사직동),GS칼텍스,N,"2,210","2,195",N,N,N,N,N,종로구,37.5744645,126.9666181
416,다산주유소,서울 중구 다산로 233,S-OIL,Y,"1,609","1,599",N,N,N,N,N,중구,37.5638911,127.0156764
417,세화주유소,서울 중구 왕십리로 403,알뜰주유소,N,"1,668","1,638",Y,N,Y,N,Y,중구,37.5647176,127.0254838
418,장충드림주유소,서울 중구 동호로 296,S-OIL,Y,"1,675","1,645",Y,N,N,N,N,중구,37.5607136,127.0031771
419,현대오일뱅크 장원주유소,서울 중구 동호로 203 (신당동),현대오일뱅크,N,"1,798","1,799",N,N,N,N,N,중구,37.5559993,127.0092633
420,SK에너지(주) 퇴계로주유소,서울 중구 퇴계로 228 (필동2가),SK에너지,N,"1,819","1,849",N,N,N,N,N,중구,37.5598189,126.9946111
421,장충주유소,서울 중구 장충단로 202 (장충동1가),SK에너지,N,"1,948","1,898",Y,N,N,N,Y,중구,37.5608027,127.0076024
422,신당동주유소,서울 중구 다산로 242 (신당동),SK에너지,N,"2,098","1,998",Y,N,N,N,Y,중구,37.5645746,127.0164982
423,약수주유소,서울 중구 다산로 173,GS칼텍스,N,"2,197","2,168",Y,N,Y,N,Y,중구,37.5590093,127.0126631
424,필동주유소,서울 중구 퇴계로 196 (필동2가),GS칼텍스,N,"2,449","2,369",N,N,N,N,Y,중구,37.5598189,126.9946111
425,서남주유소,서울 중구 통일로 30,SK에너지,N,"2,684","2,593",Y,N,N,N,Y,중구,37.5583477,126.9720901
426,대원주유소,서울 중랑구 동일로 600,GS칼텍스,Y,"1,545","1,477",Y,N,N,N,N,중랑구,37.583895,127.080133
427,(주)자연에너지 대창주유소,서울 중랑구 동일로 636 (면목동),현대오일뱅크,Y,"1,545","1,477",N,N,N,N,N,중랑구,37.58717,127.0802173
428,오천만주유소,서울 중랑구 동일로 547 (면목동),S-OIL,Y,"1,547","1,477",Y,N,N,N,N,중랑구,37.5788373,127.0793099
429,구도일주유소 동천,서울 중랑구 동일로 654 (면목동),S-OIL,Y,"1,554","1,497",Y,N,N,N,N,중랑구,37.5888677,127.0802349
430,면목SELF주유소,서울 중랑구 동일로 627 (면목동),SK에너지,Y,"1,565","1,477",Y,N,Y,N,N,중랑구,37.5863022,127.0795124
431,대양주유소,서울 중랑구 봉우재로 105 (상봉동),GS칼텍스,Y,"1,575","1,477",Y,N,N,N,N,중랑구,37.5945172,127.0885982
432,우림주유소,서울 중랑구 용마산로 487 (망우제3동),GS칼텍스,Y,"1,575","1,515",Y,N,N,N,N,중랑구,37.6001716,127.0994451
433,(주)태영 구도일주유소 한인,서울 중랑구 망우로 170 (상봉동),S-OIL,Y,"1,577","1,497",Y,N,Y,N,N,중랑구,37.5924108,127.071856
434,(주)기지에너지,서울 중랑구 용마산로 716 (신내동),S-OIL,N,"1,579","1,539",N,N,N,N,N,중랑구,37.6147043,127.1018978
435,신일셀프주유소,서울 중랑구 상봉로 58 (망우동),SK에너지,Y,"1,598","1,598",Y,N,Y,N,Y,중랑구,37.5909065,127.093834
436,용마로주유소,서울 중랑구 용마산로 309 (면목동),SK에너지,Y,"1,598","1,598",Y,N,N,N,N,중랑구,37.5798731,127.0921597
437,신내주유소,서울 중랑구 용마산로 705 (신내동),SK에너지,Y,"1,599","1,569",Y,N,N,N,N,중랑구,37.6141201,127.100916
438,범아주유소,서울 중랑구 동일로 881 (묵동),S-OIL,N,"1,619","1,589",Y,N,Y,N,N,중랑구,37.609176,127.0776619
